[{
  "client": {
    "type": "Residential",
    "name": "Michel Pinks",
    "location": {
      "streetAddress": "5024 Golf Course Crossing",
      "city": "Dublin",
      "state": "OH",
      "zipcode": "43017"
    },
    "phone": "501-938-9791",
    "email": "mpinks0@indiegogo.com"
  },
  "quote_date": "11/4/2021",
  "start_date": "12/18/2021",
  "end_date": "11/25/2021",
  "quote_price": "$631.78",
  "description": "Weekly Mow & Trim",
  "notes": "Mowing height: 2 inches",
  "completed": false,
  "crewAssignedToo": "Crew #1",
  "dailyPosition": "1"
}, {
  "client": {
    "type": "Residential",
    "name": "Crin Felix",
    "location": {
      "streetAddress": "81 Loomis Alley",
      "city": "Powell",
      "state": "OH",
      "zipcode": "43065"
    },
    "phone": "914-291-5419",
    "email": "cfelix1@hubpages.com"
  },
  "quote_date": "10/3/2021",
  "start_date": "10/2/2021",
  "end_date": "12/1/2021",
  "quote_price": "$53.71",
  "description": "Weekly Mow & Trim",
  "notes": "Mowing height: 2 inches",
  "completed": false,
  "crewAssignedToo": "Crew #2",
  "dailyPosition": "2"
}, {
  "client": {
    "type": "Residential",
    "name": "Hans Coils",
    "location": {
      "streetAddress": "9663 Messer Rd",
      "city": "Hilliard",
      "state": "OH",
      "zipcode": "43026"
    },
    "phone": "205-995-1940",
    "email": "hcoils2@homestead.com"
  },
  "quote_date": "12/24/2021",
  "start_date": "11/2/2021",
  "end_date": "12/30/2021",
  "quote_price": "$600.88",
  "description": "Weekly Mow & Trim",
  "notes": "Mowing height: 2 inches",
  "completed": false,
  "crewAssignedToo": "Crew #3",
  "dailyPosition": "2"
}, {
  "client": {
    "type": "Residential",
    "name": "Kassie Armitt",
    "location": {
      "streetAddress": "726 Pankratz Terrace",
      "city": "Dublin",
      "state": "OH",
      "zipcode": "43017"
    },
    "phone": "408-907-8152",
    "email": "karmitt3@vistaprint.com"
  },
  "quote_date": "12/2/2021",
  "start_date": "11/8/2021",
  "end_date": "7/5/2021",
  "quote_price": "$544.64",
  "description": "Weekly Mow & Trim",
  "notes": "Mowing height: 2 inches",
  "completed": false,
  "crewAssignedToo": "Crew #4",
  "dailyPosition": "1"
}, {
  "client": {
    "type": "Residential",
    "name": "Rufe Charlick",
    "location": {
      "streetAddress": "62 Grasskamp Junction",
      "city": "Powell",
      "state": "OH",
      "zipcode": "43065"
    },
    "phone": "951-560-1621",
    "email": "rcharlick4@newsvine.com"
  },
  "quote_date": "8/30/2021",
  "start_date": "7/21/2021",
  "end_date": "11/21/2021",
  "quote_price": "$319.42",
  "description": "Weekly Mow & Trim",
  "notes": "Mowing height: 2 inches",
  "completed": true,
  "crewAssignedToo": "Crew #1",
  "dailyPosition": "2"
}, {
  "client": {
    "type": "Residential",
    "name": "Corry McGilbon",
    "location": {
      "streetAddress": "10 Ramsey Street",
      "city": "Hilliard",
      "state": "OH",
      "zipcode": "43026"
    },
    "phone": "916-103-5216",
    "email": "cmcgilbon5@eventbrite.com"
  },
  "quote_date": "11/22/2021",
  "start_date": "9/26/2021",
  "end_date": "7/29/2021",
  "quote_price": "$533.57",
  "description": "Weekly Mow & Trim",
  "notes": "Mowing height: 2 inches",
  "completed": true,
  "crewAssignedToo": "Crew #1",
  "dailyPosition": "3"
}, {
  "client": {
    "type": "Residential",
    "name": "Kirsteni Duffyn",
    "location": {
      "streetAddress": "16 Morningstar Avenue",
      "city": "Dublin",
      "state": "OH",
      "zipcode": "43017"
    },
    "phone": "714-435-5710",
    "email": "kduffyn6@constantcontact.com"
  },
  "quote_date": "12/8/2021",
  "start_date": "12/9/2021",
  "end_date": "10/5/2021",
  "quote_price": "$82.51",
  "description": "Weekly Mow & Trim",
  "notes": "Mowing height: 2 inches",
  "completed": false,
  "crewAssignedToo": "Crew #2",
  "dailyPosition": "1"
}, {
  "client": {
    "type": "Residential",
    "name": "Pip Chrippes",
    "location": {
      "streetAddress": "65946 Moose Road",
      "city": "Powell",
      "state": "OH",
      "zipcode": "43065"
    },
    "phone": "915-511-7914",
    "email": "pchrippes7@zdnet.com"
  },
  "quote_date": "10/28/2021",
  "start_date": "7/30/2021",
  "end_date": "11/9/2021",
  "quote_price": "$796.47",
  "description": "Weekly Mow & Trim",
  "notes": "Mowing height: 2 inches",
  "completed": true,
  "crewAssignedToo": "Crew #2",
  "dailyPosition": "3"
}, {
  "client": {
    "type": "Residential",
    "name": "Vivyanne Goode",
    "location": {
      "streetAddress": "77472 Talisman Road",
      "city": "Hilliard",
      "state": "OH",
      "zipcode": "43026"
    },
    "phone": "316-578-8785",
    "email": "vgoode8@ask.com"
  },
  "quote_date": "10/6/2021",
  "start_date": "10/25/2021",
  "end_date": "10/14/2021",
  "quote_price": "$519.37",
  "description": "Weekly Mow & Trim",
  "notes": "Mowing height: 2 inches",
  "completed": false,
  "crewAssignedToo": "Crew #2",
  "dailyPosition": "4"
}, {
  "client": {
    "type": "Residential",
    "name": "Revkah Pinhorn",
    "location": {
      "streetAddress": "63925 Sunfield Junction",
      "city": "Dublin",
      "state": "OH",
      "zipcode": "43017"
    },
    "phone": "619-434-7554",
    "email": "rpinhorn9@e-recht24.de"
  },
  "quote_date": "9/29/2021",
  "start_date": "11/2/2021",
  "end_date": "7/30/2021",
  "quote_price": "$781.62",
  "description": "Weekly Mow & Trim",
  "notes": "Mowing height: 2 inches",
  "completed": false,
  "crewAssignedToo": "Crew #3",
  "dailyPosition": "1"
},
{
  "client": {
    "name": "Mita",
    "type": "Commercial",
    "contact": "Iona MacGiolla Pheadair",
    "location": {
      "streetAddress": "9643 Kings Crossing",
      "city": "Powell",
      "state": "OH",
      "zipcode": "43065"
    },
    "phone": "719-286-2897",
    "email": "imacgiolla0@wikia.com"
  },
  "quote_date": "12/18/2021",
  "start_date": "8/22/2021",
  "end_date": "9/19/2021",
  "quote_price": "$92.71",
  "description": "Weekly Mow & Trim",
  "notes": "Mowing height: 2 inches",
  "completed": false,
  "crewAssignedToo": "Crew #3",
  "dailyPosition": "3"
}, {
  "client": {
    "name": "Devshare",
    "type": "Commercial",
    "contact": "Patty Guerrero",
    "location": {
      "streetAddress": "8 Harbort Pass",
      "city": "Hilliard",
      "state": "OH",
      "zipcode": "43026"
    },
    "phone": "904-635-6718",
    "email": "pguerrero1@statcounter.com"
  },
  "quote_date": "12/24/2021",
  "start_date": "7/19/2021",
  "end_date": "11/22/2021",
  "quote_price": "$641.78",
  "description": "Weekly Mow & Trim",
  "notes": "Mowing height: 2 inches",
  "completed": true,
  "crewAssignedToo": "Crew #3",
  "dailyPosition": "4"
}, {
  "client": {
    "name": "Jabbercube",
    "type": "Commercial",
    "contact": "Maddie Tattersdill",
    "location": {
      "streetAddress": "65443 Cherokee Plaza",
      "city": "Dublin",
      "state": "OH",
      "zipcode": "43017"
    },
    "phone": "713-943-7677",
    "email": "mtattersdill2@amazon.co.uk"
  },
  "quote_date": "7/17/2021",
  "start_date": "9/14/2021",
  "end_date": "11/10/2021",
  "quote_price": "$783.94",
  "description": "Weekly Mow & Trim",
  "notes": "Mowing height: 2 inches",
  "completed": false,
  "crewAssignedToo": "Crew #4",
  "dailyPosition": "2"
}, {
  "client": {
    "name": "Topicblab",
    "type": "Commercial",
    "contact": "Cherey Menchenton",
    "location": {
      "streetAddress": "663 Pankratz Drive",
      "city": "Powell",
      "state": "OH",
      "zipcode": "43065"
    },
    "phone": "352-372-8420",
    "email": "cmenchenton3@slate.com"
  },
  "quote_date": "10/18/2021",
  "start_date": "7/5/2021",
  "end_date": "8/21/2021",
  "quote_price": "$50.38",
  "description": "Weekly Mow & Trim",
  "notes": "Mowing height: 2 inches",
  "completed": true,
  "crewAssignedToo": "Crew #4",
  "dailyPosition": "3"
}, {
  "client": {
    "name": "Abata",
    "type": "Commercial",
    "contact": "Averil Crummie",
    "location": {
      "streetAddress": "15656 Schmedeman Road",
      "city": "Hilliard",
      "state": "OH",
      "zipcode": "43026"
    },
    "phone": "626-536-6354",
    "email": "acrummie4@posterous.com"
  },
  "quote_date": "7/18/2021",
  "start_date": "9/11/2021",
  "end_date": "12/21/2021",
  "quote_price": "$332.52",
  "description": "Weekly Mow & Trim",
  "notes": "Mowing height: 2 inches",
  "completed": false,
  "crewAssignedToo": "Crew #4",
  "dailyPosition": "4"
}, {
  "client": {
    "name": "Voomm",
    "type": "Commercial",
    "contact": "Kandy Toderini",
    "location": {
      "streetAddress": "2859 Becker Point",
      "city": "Dublin",
      "state": "OH",
      "zipcode": "43017"
    },
    "phone": "817-712-5345",
    "email": "ktoderini5@mozilla.com"
  },
  "quote_date": "8/12/2021",
  "start_date": "9/15/2021",
  "end_date": "9/26/2021",
  "quote_price": "$100.01",
  "description": "Weekly Mow & Trim",
  "notes": "Mowing height: 2 inches",
  "completed": true
}, {
  "client": {
    "name": "Leenti",
    "type": "Commercial",
    "contact": "Raina Brigden",
    "location": {
      "streetAddress": "02 Ridgeway Road",
      "city": "Powell",
      "state": "OH",
      "zipcode": "43065"
    },
    "phone": "407-373-2816",
    "email": "rbrigden6@ask.com"
  },
  "quote_date": "7/23/2021",
  "start_date": "10/7/2021",
  "end_date": "10/27/2021",
  "quote_price": "$752.78",
  "description": "Weekly Mow & Trim",
  "notes": "Mowing height: 2 inches",
  "completed": false
}, {
  "client": {
    "name": "Mydeo",
    "type": "Commercial",
    "contact": "Rosabelle Gerhartz",
    "location": {
      "streetAddress": "77794 Main Drive",
      "city": "Hilliard",
      "state": "OH",
      "zipcode": "43026"
    },
    "phone": "414-419-4380",
    "email": "rgerhartz7@123-reg.co.uk"
  },
  "quote_date": "12/13/2021",
  "start_date": "11/22/2021",
  "end_date": "12/12/2021",
  "quote_price": "$657.62",
  "description": "Weekly Mow & Trim",
  "notes": "Mowing height: 2 inches",
  "completed": false
}, {
  "client": {
    "name": "Twitterbridge",
    "type": "Commercial",
    "contact": "Livvy Billham",
    "location": {
      "streetAddress": "0 Pearson Crossing",
      "city": "Dublin",
      "state": "OH",
      "zipcode": "43017"
    },
    "phone": "817-831-9212",
    "email": "lbillham8@blogs.com"
  },
  "quote_date": "8/17/2021",
  "start_date": "10/9/2021",
  "end_date": "7/8/2021",
  "quote_price": "$255.89",
  "description": "Weekly Mow & Trim",
  "notes": "Mowing height: 2 inches",
  "completed": false
}, {
  "client": {
    "name": "Yacero",
    "type": "Commercial",
    "contact": "Katha Thomassen",
    "location": {
      "streetAddress": "605 Cottonwood Court",
      "city": "Powell",
      "state": "OH",
      "zipcode": "43065"
    },
    "phone": "859-407-2386",
    "email": "kthomassen9@nhs.uk"
  },
  "quote_date": "11/24/2021",
  "start_date": "10/6/2021",
  "end_date": "12/14/2021",
  "quote_price": "$438.38",
  "description": "Weekly Mow & Trim",
  "notes": "Mowing height: 2 inches",
  "completed": true
}]
